{
  "search:중원:6": [
    {
      "lat": 37.4305990144627,
      "lng": 127.137231710025,
      "address": "경기 성남시 중원구",
      "name": "경기 성남시 중원구",
      "road": "",
      "jibun": "경기 성남시 중원구",
      "type": "address"
    },
    {
      "lat": 37.4530605719605,
      "lng": 127.167182033552,
      "address": "경기 성남시 중원구 은행로 72",
      "name": "성남시식물원",
      "road": "경기 성남시 중원구 은행로 72",
      "jibun": "경기 성남시 중원구 은행동 1932",
      "type": "place",
      "category": "관광명소"
    },
    {
      "lat": 37.4631450829918,
      "lng": 127.171933825367,
      "address": "경기 성남시 중원구 은행동 535",
      "name": "남한산성공원",
      "road": "",
      "jibun": "경기 성남시 중원구 은행동 535",
      "type": "place",
      "category": "관광명소"
    },
    {
      "lat": 37.4457113076996,
      "lng": 127.161788771128,
      "address": "경기 성남시 중원구 광명로323번길 6",
      "name": "애니멀존",
      "road": "경기 성남시 중원구 광명로323번길 6",
      "jibun": "경기 성남시 중원구 금광동 3678",
      "type": "place",
      "category": "관광명소"
    },
    {
      "lat": 37.4256356495889,
      "lng": 127.124731847293,
      "address": "경기 성남시 중원구 성남동 4827",
      "name": "성남시민농원",
      "road": "",
      "jibun": "경기 성남시 중원구 성남동 4827",
      "type": "place",
      "category": "관광명소"
    },
    {
      "lat": 37.4465230699121,
      "lng": 127.19522986232109,
      "address": "경기 성남시 중원구 상대원동 산 1",
      "name": "성남누비길 검단산길2구간",
      "road": "",
      "jibun": "경기 성남시 중원구 상대원동 산 1",
      "type": "place",
      "category": "관광명소"
    }
  ],
  "search:중원고등학교:6": [
    {
      "lat": 37.5123408439854,
      "lng": 126.762047590041,
      "address": "경기 부천시 원미구 도약로 111",
      "name": "중원고등학교",
      "road": "경기 부천시 원미구 도약로 111",
      "jibun": "경기 부천시 원미구 중동 1025",
      "type": "place",
      "category": "학교"
    },
    {
      "lat": 37.5115483770131,
      "lng": 126.762253698077,
      "address": "경기 부천시 원미구 도약로 111",
      "name": "중원고등학교 체육관",
      "road": "경기 부천시 원미구 도약로 111",
      "jibun": "경기 부천시 원미구 중동 1025",
      "type": "place",
      "category": ""
    },
    {
      "lat": 37.512133934412425,
      "lng": 126.76175982235654,
      "address": "경기 부천시 원미구 도약로 111",
      "name": "중원고등학교 행정실",
      "road": "경기 부천시 원미구 도약로 111",
      "jibun": "경기 부천시 원미구 중동 1025",
      "type": "place",
      "category": ""
    },
    {
      "lat": 37.5115041400148,
      "lng": 126.759982655463,
      "address": "경기 부천시 원미구 중동",
      "name": "중원고사거리",
      "road": "",
      "jibun": "경기 부천시 원미구 중동",
      "type": "place",
      "category": ""
    },
    {
      "lat": 37.4279481857684,
      "lng": 127.147729590469,
      "address": "경기 성남시 중원구 둔촌대로258번길 7",
      "name": "성남테크노과학고등학교",
      "road": "경기 성남시 중원구 둔촌대로258번길 7",
      "jibun": "경기 성남시 중원구 하대원동 153",
      "type": "place",
      "category": "학교"
    },
    {
      "lat": 37.4348812122951,
      "lng": 127.145786203592,
      "address": "경기 성남시 중원구 시민로77번길 10",
      "name": "성일고등학교",
      "road": "경기 성남시 중원구 시민로77번길 10",
      "jibun": "경기 성남시 중원구 성남동 2876",
      "type": "place",
      "category": "학교"
    }
  ],
  "search:부천:6": [
    {
      "lat": 37.5035117792841,
      "lng": 126.766038450927,
      "address": "경기 부천시",
      "name": "경기 부천시",
      "road": "",
      "jibun": "경기 부천시",
      "type": "address"
    },
    {
      "lat": 37.49993803783584,
      "lng": 126.74413516539293,
      "address": "경기 부천시 원미구 조마루로 2",
      "name": "웅진플레이도시",
      "road": "경기 부천시 원미구 조마루로 2",
      "jibun": "경기 부천시 원미구 상동 572-1",
      "type": "place",
      "category": "관광명소"
    },
    {
      "lat": 37.4847055335107,
      "lng": 126.782781176409,
      "address": "경기 부천시 원미구 부천로 지하 1-1",
      "name": "부천역 북부광장",
      "road": "경기 부천시 원미구 부천로 지하 1-1",
      "jibun": "경기 부천시 원미구 심곡동",
      "type": "place",
      "category": ""
    },
    {
      "lat": 37.5165352039122,
      "lng": 126.79223580294,
      "address": "경기 부천시 원미구 도당동 산 25-5",
      "name": "도당근린공원 백만송이장미원",
      "road": "",
      "jibun": "경기 부천시 원미구 도당동 산 25-5",
      "type": "place",
      "category": "관광명소"
    },
    {
      "lat": 37.50535786976324,
      "lng": 126.74636165306458,
      "address": "경기 부천시 원미구 조마루로 15",
      "name": "부천호수식물원 수피아",
      "road": "경기 부천시 원미구 조마루로 15",
      "jibun": "경기 부천시 원미구 상동 549",
      "type": "place",
      "category": "관광명소"
    },
    {
      "lat": 37.5051566567229,
      "lng": 126.815714656615,
      "address": "경기 부천시 원미구 길주로 660",
      "name": "부천생태공원 부천식물원",
      "road": "경기 부천시 원미구 길주로 660",
      "jibun": "경기 부천시 원미구 춘의동 381",
      "type": "place",
      "category": "관광명소"
    }
  ],
  "search:부천 약대:6": [
    {
      "lat": 37.5160567029757,
      "lng": 126.774985037715,
      "address": "경기 부천시 오정구 신흥로 365",
      "name": "약대주유소",
      "road": "경기 부천시 오정구 신흥로 365",
      "jibun": "경기 부천시 오정구 내동 55",
      "type": "place",
      "category": "주유소,충전소"
    },
    {
      "lat": 37.515080633991,
      "lng": 126.775309206806,
      "address": "경기 부천시 오정구 내동",
      "name": "약대오거리",
      "road": "",
      "jibun": "경기 부천시 오정구 내동",
      "type": "place",
      "category": ""
    },
    {
      "lat": 37.5111617364291,
      "lng": 126.774606123481,
      "address": "경기 부천시 원미구 신흥로 307",
      "name": "약대감리교회",
      "road": "경기 부천시 원미구 신흥로 307",
      "jibun": "경기 부천시 원미구 약대동 169-11",
      "type": "place",
      "category": ""
    },
    {
      "lat": 37.5124252281245,
      "lng": 126.774756151056,
      "address": "경기 부천시 원미구 신흥로 321",
      "name": "약대한방병원",
      "road": "경기 부천시 원미구 신흥로 321",
      "jibun": "경기 부천시 원미구 약대동 169-115",
      "type": "place",
      "category": "병원"
    },
    {
      "lat": 37.5140527069737,
      "lng": 126.773013881295,
      "address": "경기 부천시 원미구 수도로66번길 14",
      "name": "약대초등학교",
      "road": "경기 부천시 원미구 수도로66번길 14",
      "jibun": "경기 부천시 원미구 약대동 112",
      "type": "place",
      "category": "학교"
    },
    {
      "lat": 37.5105353408755,
      "lng": 126.774974468177,
      "address": "경기 부천시 원미구 약대동",
      "name": "약대교회사거리",
      "road": "",
      "jibun": "경기 부천시 원미구 약대동",
      "type": "place",
      "category": ""
    }
  ],
  "search:부천 부천:6": [
    {
      "lat": 37.5035117792841,
      "lng": 126.766038450927,
      "address": "경기 부천시",
      "name": "경기 부천시",
      "road": "",
      "jibun": "경기 부천시",
      "type": "address"
    },
    {
      "lat": 37.501721020562094,
      "lng": 126.79332635235399,
      "address": "경기 부천시 원미구 원미로 213",
      "name": "부천장례식장",
      "road": "경기 부천시 원미구 원미로 213",
      "jibun": "경기 부천시 원미구 춘의동 193-1",
      "type": "place",
      "category": ""
    },
    {
      "lat": 37.49421313476244,
      "lng": 126.77803365603836,
      "address": "경기 부천시 원미구 신흥로 115",
      "name": "부천소방서",
      "road": "경기 부천시 원미구 신흥로 115",
      "jibun": "경기 부천시 원미구 중동 1218",
      "type": "place",
      "category": "공공기관"
    },
    {
      "lat": 37.503632590856554,
      "lng": 126.75671001120453,
      "address": "경기 부천시 원미구 송내대로 239",
      "name": "부천터미널소풍",
      "road": "경기 부천시 원미구 송내대로 239",
      "jibun": "경기 부천시 원미구 상동 539-1",
      "type": "place",
      "category": ""
    },
    {
      "lat": 37.513420835860586,
      "lng": 126.7632385988074,
      "address": "경기 부천시 원미구 석천로 293",
      "name": "부천체육관",
      "road": "경기 부천시 원미구 석천로 293",
      "jibun": "경기 부천시 원미구 중동 1024",
      "type": "place",
      "category": ""
    },
    {
      "lat": 37.4886599665959,
      "lng": 126.779332328268,
      "address": "경기 부천시 원미구 신흥로56번길 25",
      "name": "부천대학교",
      "road": "경기 부천시 원미구 신흥로56번길 25",
      "jibun": "경기 부천시 원미구 심곡동 424",
      "type": "place",
      "category": ""
    }
  ],
  "search:부천체육관:6": [
    {
      "lat": 37.513420835860586,
      "lng": 126.7632385988074,
      "address": "경기 부천시 원미구 석천로 293",
      "name": "부천체육관",
      "road": "경기 부천시 원미구 석천로 293",
      "jibun": "경기 부천시 원미구 중동 1024",
      "type": "place",
      "category": ""
    },
    {
      "lat": 37.51259633075267,
      "lng": 126.76409517155074,
      "address": "경기 부천시 원미구 석천로 293",
      "name": "부천국민체육센터",
      "road": "경기 부천시 원미구 석천로 293",
      "jibun": "경기 부천시 원미구 중동 1024",
      "type": "place",
      "category": ""
    },
    {
      "lat": 37.5130033936513,
      "lng": 126.761755927594,
      "address": "경기 부천시 원미구 석천로 293",
      "name": "부천체육관 축구장",
      "road": "경기 부천시 원미구 석천로 293",
      "jibun": "경기 부천시 원미구 중동 1024",
      "type": "place",
      "category": ""
    },
    {
      "lat": 37.5144475451776,
      "lng": 126.763022706399,
      "address": "경기 부천시 원미구 석천로 293",
      "name": "부천체육관 주차장",
      "road": "경기 부천시 원미구 석천로 293",
      "jibun": "경기 부천시 원미구 중동 1024",
      "type": "place",
      "category": "주차장"
    },
    {
      "lat": 37.5125121324251,
      "lng": 126.762992631162,
      "address": "경기 부천시 원미구 석천로 293",
      "name": "부천체육관 농구장",
      "road": "경기 부천시 원미구 석천로 293",
      "jibun": "경기 부천시 원미구 중동 1024",
      "type": "place",
      "category": ""
    }
  ],
  "search:경기 부천시 원미구 석천로 293:6": [
    {
      "lat": 37.5127584122871,
      "lng": 126.763910407469,
      "address": "경기 부천시 원미구 석천로 293",
      "name": "경기 부천시 원미구 석천로 293",
      "road": "경기 부천시 원미구 석천로 293",
      "jibun": "경기 부천시 원미구 중동 1024",
      "type": "address"
    },
    {
      "lat": 37.513420835860586,
      "lng": 126.7632385988074,
      "address": "경기 부천시 원미구 석천로 293",
      "name": "부천체육관",
      "road": "경기 부천시 원미구 석천로 293",
      "jibun": "경기 부천시 원미구 중동 1024",
      "type": "place",
      "category": ""
    },
    {
      "lat": 37.51259633075267,
      "lng": 126.76409517155074,
      "address": "경기 부천시 원미구 석천로 293",
      "name": "부천국민체육센터",
      "road": "경기 부천시 원미구 석천로 293",
      "jibun": "경기 부천시 원미구 중동 1024",
      "type": "place",
      "category": ""
    },
    {
      "lat": 37.5130033936513,
      "lng": 126.761755927594,
      "address": "경기 부천시 원미구 석천로 293",
      "name": "부천체육관 축구장",
      "road": "경기 부천시 원미구 석천로 293",
      "jibun": "경기 부천시 원미구 중동 1024",
      "type": "place",
      "category": ""
    },
    {
      "lat": 37.5144475451776,
      "lng": 126.763022706399,
      "address": "경기 부천시 원미구 석천로 293",
      "name": "부천체육관 주차장",
      "road": "경기 부천시 원미구 석천로 293",
      "jibun": "경기 부천시 원미구 중동 1024",
      "type": "place",
      "category": "주차장"
    },
    {
      "lat": 37.51447183949045,
      "lng": 126.76166303294703,
      "address": "경기 부천시 원미구 석천로 293",
      "name": "부천실내테니스장",
      "road": "경기 부천시 원미구 석천로 293",
      "jibun": "경기 부천시 원미구 중동 1024",
      "type": "place",
      "category": ""
    }
  ],
  "search:부천초등:6": [
    {
      "lat": 37.4739719658279,
      "lng": 126.796522971328,
      "address": "경기 부천시 소사구 은성로 58",
      "name": "소사초등학교",
      "road": "경기 부천시 소사구 은성로 58",
      "jibun": "경기 부천시 소사구 소사본동 193",
      "type": "place",
      "category": "학교"
    },
    {
      "lat": 37.5271749040005,
      "lng": 126.807524161186,
      "address": "경기 부천시 오정구 소사로794번길 48",
      "name": "오정초등학교",
      "road": "경기 부천시 오정구 소사로794번길 48",
      "jibun": "경기 부천시 오정구 원종동 247",
      "type": "place",
      "category": "학교"
    },
    {
      "lat": 37.5304645300804,
      "lng": 126.802655410167,
      "address": "경기 부천시 오정구 소사로819번길 46",
      "name": "부천원일초등학교",
      "road": "경기 부천시 오정구 소사로819번길 46",
      "jibun": "경기 부천시 오정구 원종동 104-3",
      "type": "place",
      "category": "학교"
    },
    {
      "lat": 37.4941455134733,
      "lng": 126.789326083114,
      "address": "경기 부천시 원미구 원미로131번길 35",
      "name": "부천북초등학교",
      "road": "경기 부천시 원미구 원미로131번길 35",
      "jibun": "경기 부천시 원미구 원미동 99-1",
      "type": "place",
      "category": "학교"
    },
    {
      "lat": 37.4892408755299,
      "lng": 126.787557824603,
      "address": "경기 부천시 원미구 부흥로 423",
      "name": "원미초등학교",
      "road": "경기 부천시 원미구 부흥로 423",
      "jibun": "경기 부천시 원미구 심곡동 184",
      "type": "place",
      "category": "학교"
    },
    {
      "lat": 37.4921972765251,
      "lng": 126.776436180837,
      "address": "경기 부천시 원미구 장말로 309",
      "name": "심곡초등학교",
      "road": "경기 부천시 원미구 장말로 309",
      "jibun": "경기 부천시 원미구 심곡동 300",
      "type": "place",
      "category": "학교"
    }
  ],
  "search:부천초등학교:6": [
    {
      "lat": 37.5142537081162,
      "lng": 126.765217670284,
      "address": "경기 부천시 원미구 평천로 670",
      "name": "부천초등학교",
      "road": "경기 부천시 원미구 평천로 670",
      "jibun": "경기 부천시 원미구 약대동 30",
      "type": "place",
      "category": "학교"
    },
    {
      "lat": 37.5304645300804,
      "lng": 126.802655410167,
      "address": "경기 부천시 오정구 소사로819번길 46",
      "name": "부천원일초등학교",
      "road": "경기 부천시 오정구 소사로819번길 46",
      "jibun": "경기 부천시 오정구 원종동 104-3",
      "type": "place",
      "category": "학교"
    },
    {
      "lat": 37.4941455134733,
      "lng": 126.789326083114,
      "address": "경기 부천시 원미구 원미로131번길 35",
      "name": "부천북초등학교",
      "road": "경기 부천시 원미구 원미로131번길 35",
      "jibun": "경기 부천시 원미구 원미동 99-1",
      "type": "place",
      "category": "학교"
    },
    {
      "lat": 37.5187768724302,
      "lng": 126.770791514125,
      "address": "경기 부천시 오정구 중동로 436",
      "name": "부천삼정초등학교",
      "road": "경기 부천시 오정구 중동로 436",
      "jibun": "경기 부천시 오정구 삼정동 301",
      "type": "place",
      "category": "학교"
    },
    {
      "lat": 37.5280485681051,
      "lng": 126.797638724335,
      "address": "경기 부천시 오정구 성오로 160",
      "name": "부천대명초등학교",
      "road": "경기 부천시 오정구 성오로 160",
      "jibun": "경기 부천시 오정구 오정동 127-8",
      "type": "place",
      "category": "학교"
    },
    {
      "lat": 37.483008476489,
      "lng": 126.762411997617,
      "address": "경기 부천시 소사구 경인로60번길 19",
      "name": "부천송일초등학교",
      "road": "경기 부천시 소사구 경인로60번길 19",
      "jibun": "경기 부천시 소사구 송내동 397",
      "type": "place",
      "category": "학교"
    }
  ],
  "search:약대두산위브:6": [
    {
      "lat": 37.511611739562845,
      "lng": 126.76875488120706,
      "address": "경기 부천시 원미구 수도로 18",
      "name": "부천두산위브트레지움1단지아파트",
      "road": "경기 부천시 원미구 수도로 18",
      "jibun": "경기 부천시 원미구 약대동 196",
      "type": "place",
      "category": ""
    },
    {
      "lat": 37.5098063901773,
      "lng": 126.772601468623,
      "address": "경기 부천시 원미구 도약로 206",
      "name": "두산위브트레지움2단지아파트",
      "road": "경기 부천시 원미구 도약로 206",
      "jibun": "경기 부천시 원미구 약대동 209",
      "type": "place",
      "category": ""
    },
    {
      "lat": 37.5106795039047,
      "lng": 126.771223457001,
      "address": "경기 부천시 원미구 도약로 199",
      "name": "부천위브트레지움3단지아파트",
      "road": "경기 부천시 원미구 도약로 199",
      "jibun": "경기 부천시 원미구 약대동 204",
      "type": "place",
      "category": ""
    },
    {
      "lat": 37.5106324783248,
      "lng": 126.773001617845,
      "address": "경기 부천시 원미구 도약로 209",
      "name": "크린토피아 부천약대두산위브점",
      "road": "경기 부천시 원미구 도약로 209",
      "jibun": "경기 부천시 원미구 약대동 175-16",
      "type": "place",
      "category": ""
    }
  ],
  "search:약대두산위브 1:6": [
    {
      "lat": 37.511611739562845,
      "lng": 126.76875488120706,
      "address": "경기 부천시 원미구 수도로 18",
      "name": "부천두산위브트레지움1단지아파트",
      "road": "경기 부천시 원미구 수도로 18",
      "jibun": "경기 부천시 원미구 약대동 196",
      "type": "place",
      "category": ""
    }
  ],
  "search:경기 부천시 원미구 석천로 273:6": [
    {
      "lat": 37.5120693880616,
      "lng": 126.763626189416,
      "address": "경기 부천시 원미구 석천로 273",
      "name": "경기 부천시 원미구 석천로 273",
      "road": "경기 부천시 원미구 석천로 273",
      "jibun": "경기 부천시 원미구 중동 1026",
      "type": "address"
    },
    {
      "lat": 37.5120813305563,
      "lng": 126.763830989609,
      "address": "경기 부천시 원미구 석천로 273",
      "name": "부천중원초등학교",
      "road": "경기 부천시 원미구 석천로 273",
      "jibun": "경기 부천시 원미구 중동 1026",
      "type": "place",
      "category": "학교"
    }
  ],
  "search:약대:6": [
    {
      "lat": 37.5160567029757,
      "lng": 126.774985037715,
      "address": "경기 부천시 오정구 신흥로 365",
      "name": "약대주유소",
      "road": "경기 부천시 오정구 신흥로 365",
      "jibun": "경기 부천시 오정구 내동 55",
      "type": "place",
      "category": "주유소,충전소"
    },
    {
      "lat": 37.515080633991,
      "lng": 126.775309206806,
      "address": "경기 부천시 오정구 내동",
      "name": "약대오거리",
      "road": "",
      "jibun": "경기 부천시 오정구 내동",
      "type": "place",
      "category": ""
    },
    {
      "lat": 37.5111617364291,
      "lng": 126.774606123481,
      "address": "경기 부천시 원미구 신흥로 307",
      "name": "약대감리교회",
      "road": "경기 부천시 원미구 신흥로 307",
      "jibun": "경기 부천시 원미구 약대동 169-11",
      "type": "place",
      "category": ""
    },
    {
      "lat": 37.5124252281245,
      "lng": 126.774756151056,
      "address": "경기 부천시 원미구 신흥로 321",
      "name": "약대한방병원",
      "road": "경기 부천시 원미구 신흥로 321",
      "jibun": "경기 부천시 원미구 약대동 169-115",
      "type": "place",
      "category": "병원"
    },
    {
      "lat": 37.5140527069737,
      "lng": 126.773013881295,
      "address": "경기 부천시 원미구 수도로66번길 14",
      "name": "약대초등학교",
      "road": "경기 부천시 원미구 수도로66번길 14",
      "jibun": "경기 부천시 원미구 약대동 112",
      "type": "place",
      "category": "학교"
    },
    {
      "lat": 37.5105353408755,
      "lng": 126.774974468177,
      "address": "경기 부천시 원미구 약대동",
      "name": "약대교회사거리",
      "road": "",
      "jibun": "경기 부천시 원미구 약대동",
      "type": "place",
      "category": ""
    }
  ],
  "search:약대초등:6": [
    {
      "lat": 37.5140527069737,
      "lng": 126.773013881295,
      "address": "경기 부천시 원미구 수도로66번길 14",
      "name": "약대초등학교",
      "road": "경기 부천시 원미구 수도로66번길 14",
      "jibun": "경기 부천시 원미구 약대동 112",
      "type": "place",
      "category": "학교"
    },
    {
      "lat": 37.5142646933101,
      "lng": 126.773144447926,
      "address": "경기 부천시 원미구 수도로66번길 14",
      "name": "약대초등학교 후문",
      "road": "경기 부천시 원미구 수도로66번길 14",
      "jibun": "경기 부천시 원미구 약대동 112",
      "type": "place",
      "category": ""
    },
    {
      "lat": 37.5144026935277,
      "lng": 126.773220945775,
      "address": "경기 부천시 오정구 삼정동",
      "name": "약대초교앞교차로",
      "road": "",
      "jibun": "경기 부천시 오정구 삼정동",
      "type": "place",
      "category": ""
    }
  ],
  "search:상인초:6": [
    {
      "lat": 37.5129746714642,
      "lng": 126.756507764336,
      "address": "경기 부천시 원미구 도약로 61",
      "name": "상인초등학교",
      "road": "경기 부천시 원미구 도약로 61",
      "jibun": "경기 부천시 원미구 상동 500-3",
      "type": "place",
      "category": "학교"
    },
    {
      "lat": 35.8129374544233,
      "lng": 128.54269414416422,
      "address": "대구 달서구 월곡로 211",
      "name": "대구상인초등학교",
      "road": "대구 달서구 월곡로 211",
      "jibun": "대구 달서구 상인동 481",
      "type": "place",
      "category": "학교"
    },
    {
      "lat": 37.5122280433773,
      "lng": 126.754477642711,
      "address": "경기 부천시 원미구 상동 629",
      "name": "상인초등학교사거리",
      "road": "",
      "jibun": "경기 부천시 원미구 상동 629",
      "type": "place",
      "category": ""
    },
    {
      "lat": 35.8138148539421,
      "lng": 128.542298443241,
      "address": "대구 달서구 월곡로 211",
      "name": "대구상인초등학교 별관",
      "road": "대구 달서구 월곡로 211",
      "jibun": "대구 달서구 상인동 481",
      "type": "place",
      "category": ""
    },
    {
      "lat": 37.51270655076069,
      "lng": 126.75625414119915,
      "address": "경기 부천시 원미구 도약로 61",
      "name": "상인초등학교 병설유치원",
      "road": "경기 부천시 원미구 도약로 61",
      "jibun": "경기 부천시 원미구 상동 500-3",
      "type": "place",
      "category": "어린이집,유치원"
    }
  ],
  "search:부천체육:6": [
    {
      "lat": 37.51259633075267,
      "lng": 126.76409517155074,
      "address": "경기 부천시 원미구 석천로 293",
      "name": "부천국민체육센터",
      "road": "경기 부천시 원미구 석천로 293",
      "jibun": "경기 부천시 원미구 중동 1024",
      "type": "place",
      "category": ""
    },
    {
      "lat": 37.4684449549915,
      "lng": 126.798496968757,
      "address": "경기 부천시 소사구 소사로 108",
      "name": "소사국민체육센터",
      "road": "경기 부천시 소사구 소사로 108",
      "jibun": "경기 부천시 소사구 소사본동 400-1",
      "type": "place",
      "category": ""
    },
    {
      "lat": 37.482076244729996,
      "lng": 126.76938976610624,
      "address": "경기 부천시 소사구 경인로120번길 45",
      "name": "송내국민체육센터",
      "road": "경기 부천시 소사구 경인로120번길 45",
      "jibun": "경기 부천시 소사구 송내동 457",
      "type": "place",
      "category": ""
    },
    {
      "lat": 37.46173927741458,
      "lng": 126.8153725281429,
      "address": "경기 부천시 소사구 옥길로 23",
      "name": "옥길문화체육센터",
      "road": "경기 부천시 소사구 옥길로 23",
      "jibun": "경기 부천시 소사구 옥길동 769-1",
      "type": "place",
      "category": ""
    },
    {
      "lat": 37.49751485143835,
      "lng": 126.79523552255988,
      "address": "경기 부천시 원미구 원미동 16",
      "name": "시민소체육공원",
      "road": "",
      "jibun": "경기 부천시 원미구 원미동 16",
      "type": "place",
      "category": ""
    }
  ],
  "search:부천초:6": [
    {
      "lat": 37.5142537081162,
      "lng": 126.765217670284,
      "address": "경기 부천시 원미구 평천로 670",
      "name": "부천초등학교",
      "road": "경기 부천시 원미구 평천로 670",
      "jibun": "경기 부천시 원미구 약대동 30",
      "type": "place",
      "category": "학교"
    },
    {
      "lat": 35.9565752704321,
      "lng": 126.985598542732,
      "address": "전북특별자치도 익산시 부송1로 32",
      "name": "이리부천초등학교",
      "road": "전북특별자치도 익산시 부송1로 32",
      "jibun": "전북특별자치도 익산시 부송동 1070",
      "type": "place",
      "category": "학교"
    },
    {
      "lat": 37.5150483505664,
      "lng": 126.764292186358,
      "address": "경기 부천시 원미구 중동",
      "name": "부천초교사거리",
      "road": "",
      "jibun": "경기 부천시 원미구 중동",
      "type": "place",
      "category": ""
    }
  ],
  "search:서울 강남구 역삼동:1": [
    {
      "lat": 37.4953666908087,
      "lng": 127.03306536185,
      "address": "서울 강남구 역삼동",
      "name": "서울 강남구 역삼동",
      "road": "",
      "jibun": "서울 강남구 역삼동",
      "type": "address"
    }
  ],
  "search:인천 연수구 송도동:1": [
    {
      "lat": 37.3910698289606,
      "lng": 126.652089783488,
      "address": "인천 연수구 송도동",
      "name": "인천 연수구 송도동",
      "road": "",
      "jibun": "인천 연수구 송도동",
      "type": "address"
    }
  ],
  "search:경기 부천시 중동:1": [
    {
      "lat": 37.4878421325001,
      "lng": 126.768185927414,
      "address": "경기 부천시 원미구 중동",
      "name": "경기 부천시 원미구 중동",
      "road": "",
      "jibun": "경기 부천시 원미구 중동",
      "type": "address"
    }
  ],
  "search:서울 서초구 반포동:1": [
    {
      "lat": 37.50514467674,
      "lng": 127.013359062646,
      "address": "서울 서초구 반포동",
      "name": "서울 서초구 반포동",
      "road": "",
      "jibun": "서울 서초구 반포동",
      "type": "address"
    }
  ],
  "search:경기 수원시 팔달구:1": [
    {
      "lat": 37.2825587658538,
      "lng": 127.020121509968,
      "address": "경기 수원시 팔달구",
      "name": "경기 수원시 팔달구",
      "road": "",
      "jibun": "경기 수원시 팔달구",
      "type": "address"
    }
  ],
  "search:인천 부평구:1": [
    {
      "lat": 37.5070416636401,
      "lng": 126.721864167603,
      "address": "인천 부평구",
      "name": "인천 부평구",
      "road": "",
      "jibun": "인천 부평구",
      "type": "address"
    }
  ],
  "search:서울 마포구 상암동:1": [
    {
      "lat": 37.5783209050877,
      "lng": 126.894689433213,
      "address": "서울 마포구 상암동",
      "name": "서울 마포구 상암동",
      "road": "",
      "jibun": "서울 마포구 상암동",
      "type": "address"
    }
  ],
  "search:경기 성남시 분당구:1": [
    {
      "lat": 37.3827531654052,
      "lng": 127.118829944284,
      "address": "경기 성남시 분당구",
      "name": "경기 성남시 분당구",
      "road": "",
      "jibun": "경기 성남시 분당구",
      "type": "address"
    }
  ],
  "search:서울 노원구 상계동:1": [
    {
      "lat": 37.6612505755399,
      "lng": 127.060252770712,
      "address": "서울 노원구 상계동",
      "name": "서울 노원구 상계동",
      "road": "",
      "jibun": "서울 노원구 상계동",
      "type": "address"
    }
  ],
  "search:경기 고양시 일산동구:1": [
    {
      "lat": 37.658874624083,
      "lng": 126.775008021538,
      "address": "경기 고양시 일산동구",
      "name": "경기 고양시 일산동구",
      "road": "",
      "jibun": "경기 고양시 일산동구",
      "type": "address"
    }
  ],
  "search:서울 강서구 화곡동:1": [
    {
      "lat": 37.5362848031693,
      "lng": 126.848952280488,
      "address": "서울 강서구 화곡동",
      "name": "서울 강서구 화곡동",
      "road": "",
      "jibun": "서울 강서구 화곡동",
      "type": "address"
    }
  ],
  "search:경기 안양시 동안구:1": [
    {
      "lat": 37.392606021495,
      "lng": 126.951422855867,
      "address": "경기 안양시 동안구",
      "name": "경기 안양시 동안구",
      "road": "",
      "jibun": "경기 안양시 동안구",
      "type": "address"
    }
  ],
  "search:서울 송파구 잠실동:1": [
    {
      "lat": 37.5119564733931,
      "lng": 127.088282780728,
      "address": "서울 송파구 잠실동",
      "name": "서울 송파구 잠실동",
      "road": "",
      "jibun": "서울 송파구 잠실동",
      "type": "address"
    }
  ],
  "search:인천 남동구 구월동:1": [
    {
      "lat": 37.4493320894427,
      "lng": 126.713525152911,
      "address": "인천 남동구 구월동",
      "name": "인천 남동구 구월동",
      "road": "",
      "jibun": "인천 남동구 구월동",
      "type": "address"
    }
  ],
  "search:경기 용인시 수지구:1": [
    {
      "lat": 37.3221152975625,
      "lng": 127.097681729933,
      "address": "경기 용인시 수지구",
      "name": "경기 용인시 수지구",
      "road": "",
      "jibun": "경기 용인시 수지구",
      "type": "address"
    }
  ],
  "search:약대초:6": [
    {
      "lat": 37.5140527069737,
      "lng": 126.773013881295,
      "address": "경기 부천시 원미구 수도로66번길 14",
      "name": "약대초등학교",
      "road": "경기 부천시 원미구 수도로66번길 14",
      "jibun": "경기 부천시 원미구 약대동 112",
      "type": "place",
      "category": "학교"
    },
    {
      "lat": 37.5144026935277,
      "lng": 126.773220945775,
      "address": "경기 부천시 오정구 삼정동",
      "name": "약대초교앞교차로",
      "road": "",
      "jibun": "경기 부천시 오정구 삼정동",
      "type": "place",
      "category": ""
    },
    {
      "lat": 37.5142646933101,
      "lng": 126.773144447926,
      "address": "경기 부천시 원미구 수도로66번길 14",
      "name": "약대초등학교 후문",
      "road": "경기 부천시 원미구 수도로66번길 14",
      "jibun": "경기 부천시 원미구 약대동 112",
      "type": "place",
      "category": ""
    }
  ],
  "search:청담:6": [
    {
      "lat": 37.5250293348772,
      "lng": 127.049233039691,
      "address": "서울 강남구 청담동",
      "name": "서울 강남구 청담동",
      "road": "",
      "jibun": "서울 강남구 청담동",
      "type": "address"
    },
    {
      "lat": 37.5261262382238,
      "lng": 127.046048046817,
      "address": "서울 강남구 압구정로 448",
      "name": "청담동명품거리",
      "road": "서울 강남구 압구정로 448",
      "jibun": "서울 강남구 청담동 99-21",
      "type": "place",
      "category": "관광명소"
    },
    {
      "lat": 37.5254385255932,
      "lng": 127.044341653848,
      "address": "서울 강남구 청담동",
      "name": "청담동패션거리",
      "road": "",
      "jibun": "서울 강남구 청담동",
      "type": "place",
      "category": "관광명소"
    },
    {
      "lat": 37.524453508587335,
      "lng": 127.04723710960329,
      "address": "서울 강남구 청담동 145",
      "name": "서울명예도로 청담문화거리",
      "road": "",
      "jibun": "서울 강남구 청담동 145",
      "type": "place",
      "category": "관광명소"
    },
    {
      "lat": 37.5264754597917,
      "lng": 127.046980449104,
      "address": "서울 강남구 도산대로81길 31",
      "name": "달콤한스파이촬영지",
      "road": "서울 강남구 도산대로81길 31",
      "jibun": "서울 강남구 청담동 100-30",
      "type": "place",
      "category": ""
    },
    {
      "lat": 37.51979238601974,
      "lng": 127.04999881105918,
      "address": "서울 강남구 삼성로 716",
      "name": "올리브영 청담역점",
      "road": "서울 강남구 삼성로 716",
      "jibun": "서울 강남구 청담동 76",
      "type": "place",
      "category": ""
    }
  ],
  "search:청담어학:6": [
    {
      "lat": 37.512579256392875,
      "lng": 127.12499854862092,
      "address": "서울 송파구 위례성대로 122",
      "name": "청담어학원 송파브랜치",
      "road": "서울 송파구 위례성대로 122",
      "jibun": "서울 송파구 방이동 182-8",
      "type": "place",
      "category": "학원"
    },
    {
      "lat": 37.650883837890625,
      "lng": 127.07592760657387,
      "address": "서울 노원구 중계로 218",
      "name": "청담어학원 중계브랜치",
      "road": "서울 노원구 중계로 218",
      "jibun": "서울 노원구 중계동 359-14",
      "type": "place",
      "category": "학원"
    }
  ],
  "search:부천청송:6": [
    {
      "lat": 37.483864562132,
      "lng": 126.761581650667,
      "address": "경기 부천시 소사구 경인로53번길 8",
      "name": "청송",
      "road": "경기 부천시 소사구 경인로53번길 8",
      "jibun": "경기 부천시 소사구 송내동 366",
      "type": "place",
      "category": "음식점"
    },
    {
      "lat": 37.47675666486837,
      "lng": 126.80873886448789,
      "address": "경기 부천시 소사구 범안로57번길 15",
      "name": "청송아파트",
      "road": "경기 부천시 소사구 범안로57번길 15",
      "jibun": "경기 부천시 소사구 괴안동 87-14",
      "type": "place",
      "category": ""
    },
    {
      "lat": 37.485540979881954,
      "lng": 126.81753122812036,
      "address": "경기 부천시 소사구 경인로562번길 26",
      "name": "청송연립",
      "road": "경기 부천시 소사구 경인로562번길 26",
      "jibun": "경기 부천시 소사구 괴안동 175-5",
      "type": "place",
      "category": ""
    },
    {
      "lat": 37.5129230908571,
      "lng": 126.750784624372,
      "address": "경기 부천시 원미구 도약로 11",
      "name": "청송자동차공업사",
      "road": "경기 부천시 원미구 도약로 11",
      "jibun": "경기 부천시 원미구 상동 522-4",
      "type": "place",
      "category": ""
    },
    {
      "lat": 37.528854918590206,
      "lng": 126.78685723605099,
      "address": "경기 부천시 오정구 부천로476번가길 84",
      "name": "청송다세대",
      "road": "경기 부천시 오정구 부천로476번가길 84",
      "jibun": "경기 부천시 오정구 오정동 554-12",
      "type": "place",
      "category": ""
    },
    {
      "lat": 37.52594760130081,
      "lng": 126.78350558940309,
      "address": "경기 부천시 오정구 부천로470번길 11",
      "name": "청송다세대",
      "road": "경기 부천시 오정구 부천로470번길 11",
      "jibun": "경기 부천시 오정구 오정동 590-9",
      "type": "place",
      "category": ""
    }
  ],
  "search:부천청솔:6": [
    {
      "lat": 37.4905553074834,
      "lng": 126.75535030075,
      "address": "경기 부천시 원미구 부일로221번길 52",
      "name": "부천청솔학원",
      "road": "경기 부천시 원미구 부일로221번길 52",
      "jibun": "경기 부천시 원미구 상동 453-1",
      "type": "place",
      "category": "학원"
    },
    {
      "lat": 37.489052881945305,
      "lng": 126.77460020267362,
      "address": "경기 부천시 원미구 신흥로53번길 48",
      "name": "청솔하이빌",
      "road": "경기 부천시 원미구 신흥로53번길 48",
      "jibun": "경기 부천시 원미구 심곡동 339-28",
      "type": "place",
      "category": ""
    },
    {
      "lat": 37.53093040236033,
      "lng": 126.8213691639897,
      "address": "경기 부천시 오정구 고강로154번길 10-6",
      "name": "청솔하이빌",
      "road": "경기 부천시 오정구 고강로154번길 10-6",
      "jibun": "경기 부천시 오정구 고강동 357-21",
      "type": "place",
      "category": ""
    },
    {
      "lat": 37.4838516893308,
      "lng": 126.812415747719,
      "address": "경기 부천시 소사구 부광로8번길 6",
      "name": "청솔생고기숯불구이",
      "road": "경기 부천시 소사구 부광로8번길 6",
      "jibun": "경기 부천시 소사구 괴안동 114-8",
      "type": "place",
      "category": "음식점"
    },
    {
      "lat": 37.48054942909966,
      "lng": 126.77567720639867,
      "address": "경기 부천시 소사구 심곡로 37",
      "name": "청솔노블빌",
      "road": "경기 부천시 소사구 심곡로 37",
      "jibun": "경기 부천시 소사구 심곡본동 607-19",
      "type": "place",
      "category": ""
    },
    {
      "lat": 37.487282897213,
      "lng": 126.768333516038,
      "address": "경기 부천시 원미구 중동로88번길 62",
      "name": "청솔한식전문",
      "road": "경기 부천시 원미구 중동로88번길 62",
      "jibun": "경기 부천시 원미구 중동 853-1",
      "type": "place",
      "category": "음식점"
    }
  ],
  "search:강남:6": [
    {
      "lat": 37.517331925853,
      "lng": 127.047377408384,
      "address": "서울 강남구",
      "name": "서울 강남구",
      "road": "",
      "jibun": "서울 강남구",
      "type": "address"
    },
    {
      "lat": 37.5091105328378,
      "lng": 127.04892851392,
      "address": "서울 강남구 선릉로100길 1",
      "name": "서울선릉과정릉",
      "road": "서울 강남구 선릉로100길 1",
      "jibun": "서울 강남구 삼성동 131",
      "type": "place",
      "category": ""
    },
    {
      "lat": 37.5267558230172,
      "lng": 127.039152029523,
      "address": "서울 강남구 신사동 668-33",
      "name": "압구정로데오거리",
      "road": "",
      "jibun": "서울 강남구 신사동 668-33",
      "type": "place",
      "category": "관광명소"
    },
    {
      "lat": 37.4980203713024,
      "lng": 127.058171762935,
      "address": "서울 강남구 대치동 1026",
      "name": "대치동학원가",
      "road": "",
      "jibun": "서울 강남구 대치동 1026",
      "type": "place",
      "category": "관광명소"
    },
    {
      "lat": 37.4713350212102,
      "lng": 127.06859656411,
      "address": "서울 강남구 개포동 산 53-1",
      "name": "서울둘레길 9코스 자연생태 유람길",
      "road": "",
      "jibun": "서울 강남구 개포동 산 53-1",
      "type": "place",
      "category": "관광명소"
    },
    {
      "lat": 37.4818037639471,
      "lng": 127.046595188917,
      "address": "서울 강남구 도곡동",
      "name": "양재천",
      "road": "",
      "jibun": "서울 강남구 도곡동",
      "type": "place",
      "category": ""
    }
  ]
}