{
  "search:중원:6": [
    {
      "lat": 37.4305990144627,
      "lng": 127.137231710025,
      "address": "경기 성남시 중원구",
      "name": "경기 성남시 중원구",
      "road": "",
      "jibun": "경기 성남시 중원구",
      "type": "address"
    },
    {
      "lat": 37.4530605719605,
      "lng": 127.167182033552,
      "address": "경기 성남시 중원구 은행로 72",
      "name": "성남시식물원",
      "road": "경기 성남시 중원구 은행로 72",
      "jibun": "경기 성남시 중원구 은행동 1932",
      "type": "place",
      "category": "관광명소"
    },
    {
      "lat": 37.4631450829918,
      "lng": 127.171933825367,
      "address": "경기 성남시 중원구 은행동 535",
      "name": "남한산성공원",
      "road": "",
      "jibun": "경기 성남시 중원구 은행동 535",
      "type": "place",
      "category": "관광명소"
    },
    {
      "lat": 37.4457113076996,
      "lng": 127.161788771128,
      "address": "경기 성남시 중원구 광명로323번길 6",
      "name": "애니멀존",
      "road": "경기 성남시 중원구 광명로323번길 6",
      "jibun": "경기 성남시 중원구 금광동 3678",
      "type": "place",
      "category": "관광명소"
    },
    {
      "lat": 37.4256356495889,
      "lng": 127.124731847293,
      "address": "경기 성남시 중원구 성남동 4827",
      "name": "성남시민농원",
      "road": "",
      "jibun": "경기 성남시 중원구 성남동 4827",
      "type": "place",
      "category": "관광명소"
    },
    {
      "lat": 37.4465230699121,
      "lng": 127.19522986232109,
      "address": "경기 성남시 중원구 상대원동 산 1",
      "name": "성남누비길 검단산길2구간",
      "road": "",
      "jibun": "경기 성남시 중원구 상대원동 산 1",
      "type": "place",
      "category": "관광명소"
    }
  ],
  "search:중원고등학교:6": [
    {
      "lat": 37.5123408439854,
      "lng": 126.762047590041,
      "address": "경기 부천시 원미구 도약로 111",
      "name": "중원고등학교",
      "road": "경기 부천시 원미구 도약로 111",
      "jibun": "경기 부천시 원미구 중동 1025",
      "type": "place",
      "category": "학교"
    },
    {
      "lat": 37.5115483770131,
      "lng": 126.762253698077,
      "address": "경기 부천시 원미구 도약로 111",
      "name": "중원고등학교 체육관",
      "road": "경기 부천시 원미구 도약로 111",
      "jibun": "경기 부천시 원미구 중동 1025",
      "type": "place",
      "category": ""
    },
    {
      "lat": 37.512133934412425,
      "lng": 126.76175982235654,
      "address": "경기 부천시 원미구 도약로 111",
      "name": "중원고등학교 행정실",
      "road": "경기 부천시 원미구 도약로 111",
      "jibun": "경기 부천시 원미구 중동 1025",
      "type": "place",
      "category": ""
    },
    {
      "lat": 37.5115041400148,
      "lng": 126.759982655463,
      "address": "경기 부천시 원미구 중동",
      "name": "중원고사거리",
      "road": "",
      "jibun": "경기 부천시 원미구 중동",
      "type": "place",
      "category": ""
    },
    {
      "lat": 37.4279481857684,
      "lng": 127.147729590469,
      "address": "경기 성남시 중원구 둔촌대로258번길 7",
      "name": "성남테크노과학고등학교",
      "road": "경기 성남시 중원구 둔촌대로258번길 7",
      "jibun": "경기 성남시 중원구 하대원동 153",
      "type": "place",
      "category": "학교"
    },
    {
      "lat": 37.4348812122951,
      "lng": 127.145786203592,
      "address": "경기 성남시 중원구 시민로77번길 10",
      "name": "성일고등학교",
      "road": "경기 성남시 중원구 시민로77번길 10",
      "jibun": "경기 성남시 중원구 성남동 2876",
      "type": "place",
      "category": "학교"
    }
  ],
  "search:부천:6": [
    {
      "lat": 37.5035117792841,
      "lng": 126.766038450927,
      "address": "경기 부천시",
      "name": "경기 부천시",
      "road": "",
      "jibun": "경기 부천시",
      "type": "address"
    },
    {
      "lat": 37.49993803783584,
      "lng": 126.74413516539293,
      "address": "경기 부천시 원미구 조마루로 2",
      "name": "웅진플레이도시",
      "road": "경기 부천시 원미구 조마루로 2",
      "jibun": "경기 부천시 원미구 상동 572-1",
      "type": "place",
      "category": "관광명소"
    },
    {
      "lat": 37.4847055335107,
      "lng": 126.782781176409,
      "address": "경기 부천시 원미구 부천로 지하 1-1",
      "name": "부천역 북부광장",
      "road": "경기 부천시 원미구 부천로 지하 1-1",
      "jibun": "경기 부천시 원미구 심곡동",
      "type": "place",
      "category": ""
    },
    {
      "lat": 37.5165352039122,
      "lng": 126.79223580294,
      "address": "경기 부천시 원미구 도당동 산 25-5",
      "name": "도당근린공원 백만송이장미원",
      "road": "",
      "jibun": "경기 부천시 원미구 도당동 산 25-5",
      "type": "place",
      "category": "관광명소"
    },
    {
      "lat": 37.50535786976324,
      "lng": 126.74636165306458,
      "address": "경기 부천시 원미구 조마루로 15",
      "name": "부천호수식물원 수피아",
      "road": "경기 부천시 원미구 조마루로 15",
      "jibun": "경기 부천시 원미구 상동 549",
      "type": "place",
      "category": "관광명소"
    },
    {
      "lat": 37.5051566567229,
      "lng": 126.815714656615,
      "address": "경기 부천시 원미구 길주로 660",
      "name": "부천생태공원 부천식물원",
      "road": "경기 부천시 원미구 길주로 660",
      "jibun": "경기 부천시 원미구 춘의동 381",
      "type": "place",
      "category": "관광명소"
    }
  ],
  "search:부천 약대:6": [
    {
      "lat": 37.5160567029757,
      "lng": 126.774985037715,
      "address": "경기 부천시 오정구 신흥로 365",
      "name": "약대주유소",
      "road": "경기 부천시 오정구 신흥로 365",
      "jibun": "경기 부천시 오정구 내동 55",
      "type": "place",
      "category": "주유소,충전소"
    },
    {
      "lat": 37.515080633991,
      "lng": 126.775309206806,
      "address": "경기 부천시 오정구 내동",
      "name": "약대오거리",
      "road": "",
      "jibun": "경기 부천시 오정구 내동",
      "type": "place",
      "category": ""
    },
    {
      "lat": 37.5111617364291,
      "lng": 126.774606123481,
      "address": "경기 부천시 원미구 신흥로 307",
      "name": "약대감리교회",
      "road": "경기 부천시 원미구 신흥로 307",
      "jibun": "경기 부천시 원미구 약대동 169-11",
      "type": "place",
      "category": ""
    },
    {
      "lat": 37.5124252281245,
      "lng": 126.774756151056,
      "address": "경기 부천시 원미구 신흥로 321",
      "name": "약대한방병원",
      "road": "경기 부천시 원미구 신흥로 321",
      "jibun": "경기 부천시 원미구 약대동 169-115",
      "type": "place",
      "category": "병원"
    },
    {
      "lat": 37.5140527069737,
      "lng": 126.773013881295,
      "address": "경기 부천시 원미구 수도로66번길 14",
      "name": "약대초등학교",
      "road": "경기 부천시 원미구 수도로66번길 14",
      "jibun": "경기 부천시 원미구 약대동 112",
      "type": "place",
      "category": "학교"
    },
    {
      "lat": 37.5105353408755,
      "lng": 126.774974468177,
      "address": "경기 부천시 원미구 약대동",
      "name": "약대교회사거리",
      "road": "",
      "jibun": "경기 부천시 원미구 약대동",
      "type": "place",
      "category": ""
    }
  ],
  "search:부천 부천:6": [
    {
      "lat": 37.5035117792841,
      "lng": 126.766038450927,
      "address": "경기 부천시",
      "name": "경기 부천시",
      "road": "",
      "jibun": "경기 부천시",
      "type": "address"
    },
    {
      "lat": 37.501721020562094,
      "lng": 126.79332635235399,
      "address": "경기 부천시 원미구 원미로 213",
      "name": "부천장례식장",
      "road": "경기 부천시 원미구 원미로 213",
      "jibun": "경기 부천시 원미구 춘의동 193-1",
      "type": "place",
      "category": ""
    },
    {
      "lat": 37.49421313476244,
      "lng": 126.77803365603836,
      "address": "경기 부천시 원미구 신흥로 115",
      "name": "부천소방서",
      "road": "경기 부천시 원미구 신흥로 115",
      "jibun": "경기 부천시 원미구 중동 1218",
      "type": "place",
      "category": "공공기관"
    },
    {
      "lat": 37.503632590856554,
      "lng": 126.75671001120453,
      "address": "경기 부천시 원미구 송내대로 239",
      "name": "부천터미널소풍",
      "road": "경기 부천시 원미구 송내대로 239",
      "jibun": "경기 부천시 원미구 상동 539-1",
      "type": "place",
      "category": ""
    },
    {
      "lat": 37.513420835860586,
      "lng": 126.7632385988074,
      "address": "경기 부천시 원미구 석천로 293",
      "name": "부천체육관",
      "road": "경기 부천시 원미구 석천로 293",
      "jibun": "경기 부천시 원미구 중동 1024",
      "type": "place",
      "category": ""
    },
    {
      "lat": 37.4886599665959,
      "lng": 126.779332328268,
      "address": "경기 부천시 원미구 신흥로56번길 25",
      "name": "부천대학교",
      "road": "경기 부천시 원미구 신흥로56번길 25",
      "jibun": "경기 부천시 원미구 심곡동 424",
      "type": "place",
      "category": ""
    }
  ],
  "search:부천체육관:6": [
    {
      "lat": 37.513420835860586,
      "lng": 126.7632385988074,
      "address": "경기 부천시 원미구 석천로 293",
      "name": "부천체육관",
      "road": "경기 부천시 원미구 석천로 293",
      "jibun": "경기 부천시 원미구 중동 1024",
      "type": "place",
      "category": ""
    },
    {
      "lat": 37.51259633075267,
      "lng": 126.76409517155074,
      "address": "경기 부천시 원미구 석천로 293",
      "name": "부천국민체육센터",
      "road": "경기 부천시 원미구 석천로 293",
      "jibun": "경기 부천시 원미구 중동 1024",
      "type": "place",
      "category": ""
    },
    {
      "lat": 37.5130033936513,
      "lng": 126.761755927594,
      "address": "경기 부천시 원미구 석천로 293",
      "name": "부천체육관 축구장",
      "road": "경기 부천시 원미구 석천로 293",
      "jibun": "경기 부천시 원미구 중동 1024",
      "type": "place",
      "category": ""
    },
    {
      "lat": 37.5144475451776,
      "lng": 126.763022706399,
      "address": "경기 부천시 원미구 석천로 293",
      "name": "부천체육관 주차장",
      "road": "경기 부천시 원미구 석천로 293",
      "jibun": "경기 부천시 원미구 중동 1024",
      "type": "place",
      "category": "주차장"
    },
    {
      "lat": 37.5125121324251,
      "lng": 126.762992631162,
      "address": "경기 부천시 원미구 석천로 293",
      "name": "부천체육관 농구장",
      "road": "경기 부천시 원미구 석천로 293",
      "jibun": "경기 부천시 원미구 중동 1024",
      "type": "place",
      "category": ""
    }
  ],
  "search:경기 부천시 원미구 석천로 293:6": [
    {
      "lat": 37.5127584122871,
      "lng": 126.763910407469,
      "address": "경기 부천시 원미구 석천로 293",
      "name": "경기 부천시 원미구 석천로 293",
      "road": "경기 부천시 원미구 석천로 293",
      "jibun": "경기 부천시 원미구 중동 1024",
      "type": "address"
    },
    {
      "lat": 37.513420835860586,
      "lng": 126.7632385988074,
      "address": "경기 부천시 원미구 석천로 293",
      "name": "부천체육관",
      "road": "경기 부천시 원미구 석천로 293",
      "jibun": "경기 부천시 원미구 중동 1024",
      "type": "place",
      "category": ""
    },
    {
      "lat": 37.51259633075267,
      "lng": 126.76409517155074,
      "address": "경기 부천시 원미구 석천로 293",
      "name": "부천국민체육센터",
      "road": "경기 부천시 원미구 석천로 293",
      "jibun": "경기 부천시 원미구 중동 1024",
      "type": "place",
      "category": ""
    },
    {
      "lat": 37.5130033936513,
      "lng": 126.761755927594,
      "address": "경기 부천시 원미구 석천로 293",
      "name": "부천체육관 축구장",
      "road": "경기 부천시 원미구 석천로 293",
      "jibun": "경기 부천시 원미구 중동 1024",
      "type": "place",
      "category": ""
    },
    {
      "lat": 37.5144475451776,
      "lng": 126.763022706399,
      "address": "경기 부천시 원미구 석천로 293",
      "name": "부천체육관 주차장",
      "road": "경기 부천시 원미구 석천로 293",
      "jibun": "경기 부천시 원미구 중동 1024",
      "type": "place",
      "category": "주차장"
    },
    {
      "lat": 37.51447183949045,
      "lng": 126.76166303294703,
      "address": "경기 부천시 원미구 석천로 293",
      "name": "부천실내테니스장",
      "road": "경기 부천시 원미구 석천로 293",
      "jibun": "경기 부천시 원미구 중동 1024",
      "type": "place",
      "category": ""
    }
  ],
  "search:부천초등:6": [
    {
      "lat": 37.4739719658279,
      "lng": 126.796522971328,
      "address": "경기 부천시 소사구 은성로 58",
      "name": "소사초등학교",
      "road": "경기 부천시 소사구 은성로 58",
      "jibun": "경기 부천시 소사구 소사본동 193",
      "type": "place",
      "category": "학교"
    },
    {
      "lat": 37.5271749040005,
      "lng": 126.807524161186,
      "address": "경기 부천시 오정구 소사로794번길 48",
      "name": "오정초등학교",
      "road": "경기 부천시 오정구 소사로794번길 48",
      "jibun": "경기 부천시 오정구 원종동 247",
      "type": "place",
      "category": "학교"
    },
    {
      "lat": 37.5304645300804,
      "lng": 126.802655410167,
      "address": "경기 부천시 오정구 소사로819번길 46",
      "name": "부천원일초등학교",
      "road": "경기 부천시 오정구 소사로819번길 46",
      "jibun": "경기 부천시 오정구 원종동 104-3",
      "type": "place",
      "category": "학교"
    },
    {
      "lat": 37.4941455134733,
      "lng": 126.789326083114,
      "address": "경기 부천시 원미구 원미로131번길 35",
      "name": "부천북초등학교",
      "road": "경기 부천시 원미구 원미로131번길 35",
      "jibun": "경기 부천시 원미구 원미동 99-1",
      "type": "place",
      "category": "학교"
    },
    {
      "lat": 37.4892408755299,
      "lng": 126.787557824603,
      "address": "경기 부천시 원미구 부흥로 423",
      "name": "원미초등학교",
      "road": "경기 부천시 원미구 부흥로 423",
      "jibun": "경기 부천시 원미구 심곡동 184",
      "type": "place",
      "category": "학교"
    },
    {
      "lat": 37.4921972765251,
      "lng": 126.776436180837,
      "address": "경기 부천시 원미구 장말로 309",
      "name": "심곡초등학교",
      "road": "경기 부천시 원미구 장말로 309",
      "jibun": "경기 부천시 원미구 심곡동 300",
      "type": "place",
      "category": "학교"
    }
  ],
  "search:부천초등학교:6": [
    {
      "lat": 37.5142537081162,
      "lng": 126.765217670284,
      "address": "경기 부천시 원미구 평천로 670",
      "name": "부천초등학교",
      "road": "경기 부천시 원미구 평천로 670",
      "jibun": "경기 부천시 원미구 약대동 30",
      "type": "place",
      "category": "학교"
    },
    {
      "lat": 37.5304645300804,
      "lng": 126.802655410167,
      "address": "경기 부천시 오정구 소사로819번길 46",
      "name": "부천원일초등학교",
      "road": "경기 부천시 오정구 소사로819번길 46",
      "jibun": "경기 부천시 오정구 원종동 104-3",
      "type": "place",
      "category": "학교"
    },
    {
      "lat": 37.4941455134733,
      "lng": 126.789326083114,
      "address": "경기 부천시 원미구 원미로131번길 35",
      "name": "부천북초등학교",
      "road": "경기 부천시 원미구 원미로131번길 35",
      "jibun": "경기 부천시 원미구 원미동 99-1",
      "type": "place",
      "category": "학교"
    },
    {
      "lat": 37.5187768724302,
      "lng": 126.770791514125,
      "address": "경기 부천시 오정구 중동로 436",
      "name": "부천삼정초등학교",
      "road": "경기 부천시 오정구 중동로 436",
      "jibun": "경기 부천시 오정구 삼정동 301",
      "type": "place",
      "category": "학교"
    },
    {
      "lat": 37.5280485681051,
      "lng": 126.797638724335,
      "address": "경기 부천시 오정구 성오로 160",
      "name": "부천대명초등학교",
      "road": "경기 부천시 오정구 성오로 160",
      "jibun": "경기 부천시 오정구 오정동 127-8",
      "type": "place",
      "category": "학교"
    },
    {
      "lat": 37.483008476489,
      "lng": 126.762411997617,
      "address": "경기 부천시 소사구 경인로60번길 19",
      "name": "부천송일초등학교",
      "road": "경기 부천시 소사구 경인로60번길 19",
      "jibun": "경기 부천시 소사구 송내동 397",
      "type": "place",
      "category": "학교"
    }
  ],
  "search:약대두산위브:6": [
    {
      "lat": 37.511611739562845,
      "lng": 126.76875488120706,
      "address": "경기 부천시 원미구 수도로 18",
      "name": "부천두산위브트레지움1단지아파트",
      "road": "경기 부천시 원미구 수도로 18",
      "jibun": "경기 부천시 원미구 약대동 196",
      "type": "place",
      "category": ""
    },
    {
      "lat": 37.5098063901773,
      "lng": 126.772601468623,
      "address": "경기 부천시 원미구 도약로 206",
      "name": "두산위브트레지움2단지아파트",
      "road": "경기 부천시 원미구 도약로 206",
      "jibun": "경기 부천시 원미구 약대동 209",
      "type": "place",
      "category": ""
    },
    {
      "lat": 37.5106795039047,
      "lng": 126.771223457001,
      "address": "경기 부천시 원미구 도약로 199",
      "name": "부천위브트레지움3단지아파트",
      "road": "경기 부천시 원미구 도약로 199",
      "jibun": "경기 부천시 원미구 약대동 204",
      "type": "place",
      "category": ""
    },
    {
      "lat": 37.5106324783248,
      "lng": 126.773001617845,
      "address": "경기 부천시 원미구 도약로 209",
      "name": "크린토피아 부천약대두산위브점",
      "road": "경기 부천시 원미구 도약로 209",
      "jibun": "경기 부천시 원미구 약대동 175-16",
      "type": "place",
      "category": ""
    }
  ],
  "search:약대두산위브 1:6": [
    {
      "lat": 37.511611739562845,
      "lng": 126.76875488120706,
      "address": "경기 부천시 원미구 수도로 18",
      "name": "부천두산위브트레지움1단지아파트",
      "road": "경기 부천시 원미구 수도로 18",
      "jibun": "경기 부천시 원미구 약대동 196",
      "type": "place",
      "category": ""
    }
  ],
  "search:경기 부천시 원미구 석천로 273:6": [
    {
      "lat": 37.5120693880616,
      "lng": 126.763626189416,
      "address": "경기 부천시 원미구 석천로 273",
      "name": "경기 부천시 원미구 석천로 273",
      "road": "경기 부천시 원미구 석천로 273",
      "jibun": "경기 부천시 원미구 중동 1026",
      "type": "address"
    },
    {
      "lat": 37.5120813305563,
      "lng": 126.763830989609,
      "address": "경기 부천시 원미구 석천로 273",
      "name": "부천중원초등학교",
      "road": "경기 부천시 원미구 석천로 273",
      "jibun": "경기 부천시 원미구 중동 1026",
      "type": "place",
      "category": "학교"
    }
  ]
}